[{"id":"1","map":"tw","flag":"tw","zoom":"11","zoom_m":"9","count":534,"badge":496,"name_tw":"\u53f0\u7063\u9ad8\u6821","name_cn":"\u53f0\u6e7e\u9ad8\u6821","name_jp":"\u53f0\u6e7e\u9ad8\u6821","name_en":"Taiwan","lng":"121.45961799999998","lat":"25.009389"},{"id":"3","map":"jr","flag":"tw","zoom":"11","zoom_m":"9","count":787,"badge":201,"name_tw":"\u53f0\u7063\u570b\u4e2d","name_cn":"\u53f0\u6e7e\u4e2d\u5b66","name_jp":"\u53f0\u6e7e\u4e2d\u5b66","name_en":"Taiwan Junior High School","lng":"120.672233","lat":"24.09527"},{"id":"2","map":"hk","flag":"hk","zoom":"11","zoom_m":"10","count":449,"badge":123,"name_tw":"\u9999\u6e2f","name_cn":"\u9999\u6e2f","name_jp":"\u9999\u6e2f","name_en":"Hong Kong","lng":"114.154602","lat":"22.354245"},{"id":"22","map":"cn","flag":"cn","zoom":"5","zoom_m":"3","count":33,"badge":17,"name_tw":"\u4e2d\u570b","name_cn":"\u4e2d\u56fd","name_jp":"\u4e2d\u56fd","name_en":"China","lng":"113.494094","lat":"32.885977"},{"id":"7","map":"mo","flag":"mo","zoom":"13","zoom_m":"12","count":43,"badge":31,"name_tw":"\u6fb3\u9580","name_cn":"\u6fb3\u95e8","name_jp":"\u30de\u30ab\u30aa","name_en":"Macau","lng":"113.554828","lat":"22.173269"},{"id":"13","map":"jp","flag":"jp","zoom":"6","zoom_m":"5","count":427,"badge":190,"name_tw":"\u65e5\u672c\u9ad8\u6821","name_cn":"\u65e5\u672c\u9ad8\u6821","name_jp":"\u65e5\u672c\u9ad8\u6821","name_en":"Japan High School","lng":"139.545345","lat":"37.136189"},{"id":"14","map":"jpjr","flag":"jp","zoom":"6","zoom_m":"5","count":233,"badge":99,"name_tw":"\u65e5\u672c\u4e2d\u5b78","name_cn":"\u65e5\u672c\u4e2d\u5b66","name_jp":"\u65e5\u672c\u4e2d\u5b66","name_en":"Japan Junior High School","lng":"138.942902","lat":"37.556657"},{"id":"11","map":"kr","flag":"kr","zoom":"7","zoom_m":"6","count":115,"badge":7,"name_tw":"\u97d3\u570b\u9ad8\u6821","name_cn":"\u97e9\u56fd\u9ad8\u6821","name_jp":"\u97d3\u56fd\u9ad8\u6821","name_en":"Korea","lng":"127.742281","lat":"36.045132"},{"id":"21","map":"krjr","flag":"kr","zoom":"7","zoom_m":"6","count":2,"badge":0,"name_tw":"\u97d3\u570b\u4e2d\u5b78","name_cn":"\u97e9\u56fd\u4e2d\u5b66","name_jp":"\u97d3\u56fd\u4e2d\u5b66","name_en":"Korea Junior High School","lng":"128.211786","lat":"36.61251"},{"id":"12","map":"ph","flag":"ph","zoom":"6","zoom_m":"5","count":13,"badge":12,"name_tw":"\u83f2\u5f8b\u8cd3","name_cn":"\u83f2\u5f8b\u5bbe","name_jp":"\u30d5\u30a3\u30ea\u30d4\u30f3","name_en":"Philippines","lng":"122.803699","lat":"12.861098"},{"id":"20","map":"th","flag":"th","zoom":"6","zoom_m":"7","count":4,"badge":2,"name_tw":"\u6cf0\u570b","name_cn":"\u6cf0\u56fd","name_jp":"\u30bf\u30a4","name_en":"Thailand","lng":"100.443622","lat":"13.790995"},{"id":"8","map":"id","flag":"id","zoom":"10","zoom_m":"8","count":26,"badge":17,"name_tw":"\u5370\u5c3c","name_cn":"\u5370\u5c3c","name_jp":"\u30a4\u30f3\u30c9\u30cd\u30b7\u30a2","name_en":"Indonesia","lng":"121.387922","lat":"-2.856984"},{"id":"4","map":"my","flag":"my","zoom":"8","zoom_m":"6","count":230,"badge":106,"name_tw":"\u99ac\u4f86\u897f\u4e9e","name_cn":"\u9a6c\u6765\u897f\u4e9a","name_jp":"\u30de\u30ec\u30fc\u30b7\u30a2","name_en":"Malysia","lng":"102.309525","lat":"3.91062"},{"id":"5","map":"bn","flag":"bn","zoom":"10","zoom_m":"9","count":18,"badge":9,"name_tw":"\u6c76\u840a","name_cn":"\u6587\u83b1","name_jp":"\u30d6\u30eb\u30cd\u30a4","name_en":"Brunei","lng":"114.770091","lat":"4.613455"},{"id":"6","map":"sg","flag":"sg","zoom":"12","zoom_m":"10","count":175,"badge":119,"name_tw":"\u65b0\u52a0\u5761","name_cn":"\u65b0\u52a0\u5761","name_jp":"\u30b7\u30f3\u30ac\u30dd\u30fc\u30eb","name_en":"Singapore","lng":"103.806496","lat":"1.349736"},{"id":"10","map":"nz","flag":"nz","zoom":"6","zoom_m":"5","count":369,"badge":345,"name_tw":"\u7d10\u897f\u862d","name_cn":"\u65b0\u897f\u5170","name_jp":"\u30cb\u30e5\u30fc\u30b8\u30fc\u30e9\u30f3\u30c9","name_en":"New Zealand","lng":"172.53992","lat":"-41.854401"},{"id":"9","map":"au","flag":"au","zoom":"5","zoom_m":"3","count":475,"badge":464,"name_tw":"\u6fb3\u5927\u5229\u4e9e","name_cn":"\u6fb3\u5927\u5229\u4e9a","name_jp":"\u30aa\u30fc\u30b9\u30c8\u30e9\u30ea\u30a2","name_en":"Australia","lng":"135.446786","lat":"-27.271062"},{"id":"18","map":"ca","flag":"ca","zoom":"4","zoom_m":"3","count":5,"badge":4,"name_tw":"\u52a0\u62ff\u5927","name_cn":"\u52a0\u62ff\u5927","name_jp":"\u30ab\u30ca\u30c0","name_en":"Canata","lng":"-106.39663","lat":"58.060346"},{"id":"23","map":"us","flag":"us","zoom":"5","zoom_m":"3","count":4,"badge":4,"name_tw":"\u7f8e\u570b","name_cn":"\u7f8e\u56fd","name_jp":"\u30a2\u30e1\u30ea\u30ab\u5408\u8846\u56fd","name_en":"USA","lng":"-97.535086","lat":"39.407046"},{"id":"17","map":"ie","flag":"ie","zoom":"7","zoom_m":"6","count":21,"badge":20,"name_tw":"\u611b\u723e\u862d","name_cn":"\u7231\u5c14\u5170","name_jp":"\u30a2\u30a4\u30eb\u30e9\u30f3\u30c9","name_en":"Ireland","lng":"-8.025711","lat":"53.176685"},{"id":"16","map":"pt","flag":"pt","zoom":"7","zoom_m":"6","count":2,"badge":2,"name_tw":"\u8461\u8404\u7259","name_cn":"\u8461\u8404\u7259","name_jp":"\u30dd\u30eb\u30c8\u30ac\u30eb","name_en":"Portugal","lng":"-8.075442","lat":"39.726001"},{"id":"15","map":"gb","flag":"gb","zoom":"6","zoom_m":"5","count":80,"badge":78,"name_tw":"\u82f1\u570b","name_cn":"\u82f1\u56fd","name_jp":"\u30a4\u30ae\u30ea\u30b9","name_en":"United Kingdom","lng":"-2.846354","lat":"54.545266"},{"id":"19","map":"za","flag":"za","zoom":"6","zoom_m":"7","count":66,"badge":63,"name_tw":"\u5357\u975e","name_cn":"\u5357\u975e","name_jp":"\u5357\u30a2\u30d5\u30ea\u30ab","name_en":"South Africa","lng":"25.165936","lat":"-29.86362"}]